[{
		"name": "Comerica Park",
		"address": "2100 Woodward Ave",
		"postalCode": "48201",
		"lat": 42.339121189762,
		"lng": -83.049349812793,
		"is_Accom": false,
		"is_Arts": false,
		"is_Asso": false,
		"is_Edu": false,
		"is_Finan": false,
		"is_Healthcare": false,
		"is_Parks": false,
		"is_Public": false,
		"is_Resturant": false,
		"is_Shop": false,
		"is_Sports": true,
		"is_Trans": false
	}, {
		"name": "DTE Energy Music Theatre",
		"address": "7774 Sashabaw Rd",
		"postalCode": "48348",
		"lat": 42.746507479481,
		"lng": -83.372754027455,
		"is_Accom": false,
		"is_Arts": true,
		"is_Asso": false,
		"is_Edu": false,
		"is_Finan": false,
		"is_Healthcare": false,
		"is_Parks": false,
		"is_Public": false,
		"is_Resturant": false,
		"is_Shop": false,
		"is_Sports": false,
		"is_Trans": false
	}, {
		"name": "REI",
		"address": "766 E Big Beaver Rd",
		"postalCode": "48083",
		"lat": 42.5609966,
		"lng": -83.1323302,
		"is_Accom": false,
		"is_Arts": false,
		"is_Asso": false,
		"is_Edu": false,
		"is_Finan": false,
		"is_Healthcare": false,
		"is_Parks": false,
		"is_Public": false,
		"is_Resturant": false,
		"is_Shop": true,
		"is_Sports": true,
		"is_Trans": false
	}, {
		"name": "Eastern Market Shed 5",
		"address": "Eastern Market",
		"postalCode": "48207",
		"lat": 42.348456494932,
		"lng": -83.041074462268,
		"is_Accom": false,
		"is_Arts": false,
		"is_Asso": false,
		"is_Edu": false,
		"is_Finan": false,
		"is_Healthcare": false,
		"is_Parks": false,
		"is_Public": false,
		"is_Resturant": false,
		"is_Shop": true,
		"is_Sports": false,
		"is_Trans": false
	}, {
		"name": "Eastern Market",
		"address": "2934 Russell St",
		"postalCode": "48207",
		"lat": 42.346801454515,
		"lng": -83.040027022362,
		"is_Accom": false,
		"is_Arts": false,
		"is_Asso": false,
		"is_Edu": false,
		"is_Finan": false,
		"is_Healthcare": false,
		"is_Parks": false,
		"is_Public": false,
		"is_Resturant": false,
		"is_Shop": true,
		"is_Sports": false,
		"is_Trans": false
	}, {
		"name": "Emagine Macomb",
		"address": "15251 23 Mile Rd",
		"postalCode": "48042",
		"lat": 42.673154328542,
		"lng": -82.974604734995,
		"is_Accom": false,
		"is_Arts": true,
		"is_Asso": false,
		"is_Edu": false,
		"is_Finan": false,
		"is_Healthcare": false,
		"is_Parks": false,
		"is_Public": false,
		"is_Resturant": false,
		"is_Shop": false,
		"is_Sports": false,
		"is_Trans": false
	}, {
		"name": "Mt Elliott Park",
		"address": null,
		"postalCode": null,
		"lat": 42.341163341417,
		"lng": -83.007202148438,
		"is_Accom": false,
		"is_Arts": false,
		"is_Asso": false,
		"is_Edu": false,
		"is_Finan": false,
		"is_Healthcare": false,
		"is_Parks": true,
		"is_Public": false,
		"is_Resturant": false,
		"is_Shop": false,
		"is_Sports": true,
		"is_Trans": false
	}, {
		"name": "Coffee Express",
		"address": "128 W 2nd St",
		"postalCode": "43452",
		"lat": 41.512091071743,
		"lng": -82.942603143352,
		"is_Accom": false,
		"is_Arts": false,
		"is_Asso": false,
		"is_Edu": false,
		"is_Finan": false,
		"is_Healthcare": false,
		"is_Parks": false,
		"is_Public": false,
		"is_Resturant": true,
		"is_Shop": false,
		"is_Sports": false,
		"is_Trans": false
	}, {
		"name": "One-Eyed Betty's",
		"address": "175 W Troy St",
		"postalCode": "48220",
		"lat": 42.459940623722,
		"lng": -83.135748034912,
		"is_Accom": false,
		"is_Arts": false,
		"is_Asso": false,
		"is_Edu": false,
		"is_Finan": false,
		"is_Healthcare": false,
		"is_Parks": false,
		"is_Public": false,
		"is_Resturant": false,
		"is_Shop": true,
		"is_Sports": false,
		"is_Trans": false
	}, {
		"name": "Edsel & Eleanor Ford House",
		"address": "1100 Lake Shore Rd",
		"postalCode": "48236",
		"lat": 42.455415536711,
		"lng": -82.874364824303,
		"is_Accom": false,
		"is_Arts": true,
		"is_Asso": false,
		"is_Edu": false,
		"is_Finan": false,
		"is_Healthcare": false,
		"is_Parks": false,
		"is_Public": false,
		"is_Resturant": false,
		"is_Shop": false,
		"is_Sports": false,
		"is_Trans": false
	}, {
		"name": "Boston-Edison Historic District",
		"address": null,
		"postalCode": null,
		"lat": 42.37828728371,
		"lng": -83.099641449455,
		"is_Accom": true,
		"is_Arts": false,
		"is_Asso": false,
		"is_Edu": false,
		"is_Finan": false,
		"is_Healthcare": false,
		"is_Parks": false,
		"is_Public": false,
		"is_Resturant": false,
		"is_Shop": false,
		"is_Sports": false,
		"is_Trans": false
	}, {
		"name": "Market North End",
		"address": "474 N Old Woodward Ave",
		"postalCode": "48009",
		"lat": 42.550202814293,
		"lng": -83.217106050932,
		"is_Accom": false,
		"is_Arts": false,
		"is_Asso": false,
		"is_Edu": false,
		"is_Finan": false,
		"is_Healthcare": false,
		"is_Parks": false,
		"is_Public": false,
		"is_Resturant": true,
		"is_Shop": false,
		"is_Sports": false,
		"is_Trans": false
	}, {
		"name": "El Club",
		"address": "4114 W Vernor Hwy",
		"postalCode": "48209",
		"lat": 42.321434307668,
		"lng": -83.093511048029,
		"is_Accom": false,
		"is_Arts": true,
		"is_Asso": false,
		"is_Edu": false,
		"is_Finan": false,
		"is_Healthcare": false,
		"is_Parks": false,
		"is_Public": false,
		"is_Resturant": false,
		"is_Shop": false,
		"is_Sports": false,
		"is_Trans": false
	}, {
		"name": "Elizabeth Park",
		"address": "Elizabeth Park Dr.",
		"postalCode": "48183",
		"lat": 42.132126181787,
		"lng": -83.179850578308,
		"is_Accom": false,
		"is_Arts": false,
		"is_Asso": false,
		"is_Edu": false,
		"is_Finan": false,
		"is_Healthcare": false,
		"is_Parks": true,
		"is_Public": false,
		"is_Resturant": false,
		"is_Shop": false,
		"is_Sports": true,
		"is_Trans": false
	}, {
		"name": "Johnny Black's East",
		"address": "35000 Moravian Dr",
		"postalCode": "48312",
		"lat": 42.551997314791,
		"lng": -82.980032467119,
		"is_Accom": false,
		"is_Arts": false,
		"is_Asso": false,
		"is_Edu": false,
		"is_Finan": false,
		"is_Healthcare": false,
		"is_Parks": false,
		"is_Public": false,
		"is_Resturant": true,
		"is_Shop": false,
		"is_Sports": false,
		"is_Trans": false
	}, {
		"name": "Erma's Original Frozen Custard",
		"address": "2080 E 14 Mile Rd",
		"postalCode": "48092",
		"lat": 42.534492865301,
		"lng": -83.085740440072,
		"is_Accom": false,
		"is_Arts": false,
		"is_Asso": false,
		"is_Edu": false,
		"is_Finan": false,
		"is_Healthcare": false,
		"is_Parks": false,
		"is_Public": false,
		"is_Resturant": true,
		"is_Shop": false,
		"is_Sports": false,
		"is_Trans": false
	}, {
		"name": "Einstein Bros Bagels",
		"address": "19341 Mack Ave",
		"postalCode": "48236",
		"lat": 42.421575536303,
		"lng": -82.910658717155,
		"is_Accom": false,
		"is_Arts": false,
		"is_Asso": false,
		"is_Edu": false,
		"is_Finan": false,
		"is_Healthcare": false,
		"is_Parks": false,
		"is_Public": false,
		"is_Resturant": true,
		"is_Shop": false,
		"is_Sports": false,
		"is_Trans": false
	}, {
		"name": "New Center Eatery",
		"address": "3100 W Grand Blvd",
		"postalCode": "48202",
		"lat": 42.369783,
		"lng": -83.074063,
		"is_Accom": false,
		"is_Arts": false,
		"is_Asso": false,
		"is_Edu": false,
		"is_Finan": false,
		"is_Healthcare": false,
		"is_Parks": false,
		"is_Public": false,
		"is_Resturant": true,
		"is_Shop": false,
		"is_Sports": false,
		"is_Trans": false
	}, {
		"name": "Erma's Original Frozen Custard",
		"address": "6451 Auburn Rd",
		"postalCode": "48317",
		"lat": 42.627739551541,
		"lng": -83.04618217128,
		"is_Accom": false,
		"is_Arts": false,
		"is_Asso": false,
		"is_Edu": false,
		"is_Finan": false,
		"is_Healthcare": false,
		"is_Parks": false,
		"is_Public": false,
		"is_Resturant": true,
		"is_Shop": false,
		"is_Sports": false,
		"is_Trans": false
	}, {
		"name": "El Charro",
		"address": "21519 21 Mile Rd",
		"postalCode": "48044",
		"lat": 42.644415180669,
		"lng": -82.898885386628,
		"is_Accom": false,
		"is_Arts": false,
		"is_Asso": false,
		"is_Edu": false,
		"is_Finan": false,
		"is_Healthcare": false,
		"is_Parks": false,
		"is_Public": false,
		"is_Resturant": true,
		"is_Shop": false,
		"is_Sports": false,
		"is_Trans": false
	}, {
		"name": "Earnest Brew Works",
		"address": "4342 S Detroit Ave",
		"postalCode": "43614",
		"lat": 41.590240760022,
		"lng": -83.615247839846,
		"is_Accom": false,
		"is_Arts": false,
		"is_Asso": true,
		"is_Edu": false,
		"is_Finan": false,
		"is_Healthcare": false,
		"is_Parks": false,
		"is_Public": false,
		"is_Resturant": false,
		"is_Shop": true,
		"is_Sports": false,
		"is_Trans": false
	}, {
		"name": "The Earle Restaurant",
		"address": "121 W Washington St",
		"postalCode": "48104",
		"lat": 42.280531854527,
		"lng": -83.749546306117,
		"is_Accom": false,
		"is_Arts": false,
		"is_Asso": false,
		"is_Edu": false,
		"is_Finan": false,
		"is_Healthcare": false,
		"is_Parks": false,
		"is_Public": false,
		"is_Resturant": true,
		"is_Shop": false,
		"is_Sports": false,
		"is_Trans": false
	}, {
		"name": "Penn Station East Coast Subs",
		"address": "1266 S Holland Sylvania Rd",
		"postalCode": "43615",
		"lat": 41.616807637683,
		"lng": -83.686598123975,
		"is_Accom": false,
		"is_Arts": false,
		"is_Asso": false,
		"is_Edu": false,
		"is_Finan": false,
		"is_Healthcare": false,
		"is_Parks": false,
		"is_Public": false,
		"is_Resturant": true,
		"is_Shop": false,
		"is_Sports": false,
		"is_Trans": false
	}, {
		"name": "Earth Lore",
		"address": "895 Wing St",
		"postalCode": "48170",
		"lat": 42.367841884894,
		"lng": -83.470724295117,
		"is_Accom": false,
		"is_Arts": false,
		"is_Asso": false,
		"is_Edu": false,
		"is_Finan": false,
		"is_Healthcare": false,
		"is_Parks": false,
		"is_Public": false,
		"is_Resturant": false,
		"is_Shop": true,
		"is_Sports": false,
		"is_Trans": false
	}, {
		"name": "Element 112",
		"address": "5735 Main St",
		"postalCode": "43560",
		"lat": 41.718234210273,
		"lng": -83.703398045561,
		"is_Accom": false,
		"is_Arts": false,
		"is_Asso": false,
		"is_Edu": false,
		"is_Finan": false,
		"is_Healthcare": false,
		"is_Parks": false,
		"is_Public": false,
		"is_Resturant": true,
		"is_Shop": false,
		"is_Sports": false,
		"is_Trans": false
	}, {
		"name": "Penn Station East Coast Subs",
		"address": "8425 N Wayne Rd",
		"postalCode": "48185",
		"lat": 42.349751111034,
		"lng": -83.386648195835,
		"is_Accom": false,
		"is_Arts": false,
		"is_Asso": false,
		"is_Edu": false,
		"is_Finan": false,
		"is_Healthcare": false,
		"is_Parks": false,
		"is_Public": false,
		"is_Resturant": true,
		"is_Shop": false,
		"is_Sports": false,
		"is_Trans": false
	}, {
		"name": "Penn Station East Coast Subs",
		"address": "146 S Main St",
		"postalCode": "48307",
		"lat": 42.677895891333,
		"lng": -83.133152427456,
		"is_Accom": false,
		"is_Arts": false,
		"is_Asso": false,
		"is_Edu": false,
		"is_Finan": false,
		"is_Healthcare": false,
		"is_Parks": false,
		"is_Public": false,
		"is_Resturant": true,
		"is_Shop": false,
		"is_Sports": false,
		"is_Trans": false
	}, {
		"name": "Penn Station East Coast Subs",
		"address": "44629 N Gratiot Ave",
		"postalCode": "48036",
		"lat": 42.626202239545,
		"lng": -82.863223683439,
		"is_Accom": false,
		"is_Arts": false,
		"is_Asso": false,
		"is_Edu": false,
		"is_Finan": false,
		"is_Healthcare": false,
		"is_Parks": false,
		"is_Public": false,
		"is_Resturant": true,
		"is_Shop": false,
		"is_Sports": false,
		"is_Trans": false
	}, {
		"name": "Ernie's Market",
		"address": "8500 Capital St",
		"postalCode": "48237",
		"lat": 42.455760501242,
		"lng": -83.157245591183,
		"is_Accom": false,
		"is_Arts": false,
		"is_Asso": false,
		"is_Edu": false,
		"is_Finan": false,
		"is_Healthcare": false,
		"is_Parks": false,
		"is_Public": false,
		"is_Resturant": true,
		"is_Shop": false,
		"is_Sports": false,
		"is_Trans": false
	}, {
		"name": "Eyebrows, Etc.",
		"address": null,
		"postalCode": null,
		"lat": 42.508570996405,
		"lng": -83.219784581295,
		"is_Accom": false,
		"is_Arts": false,
		"is_Asso": false,
		"is_Edu": false,
		"is_Finan": false,
		"is_Healthcare": false,
		"is_Parks": false,
		"is_Public": false,
		"is_Resturant": false,
		"is_Shop": true,
		"is_Sports": false,
		"is_Trans": false
	}, {
		"name": "Eternal Tattoos",
		"address": "27590 Plymouth Rd",
		"postalCode": "48150",
		"lat": 42.369956106223,
		"lng": -83.315277397653,
		"is_Accom": false,
		"is_Arts": true,
		"is_Asso": false,
		"is_Edu": false,
		"is_Finan": false,
		"is_Healthcare": false,
		"is_Parks": false,
		"is_Public": false,
		"is_Resturant": false,
		"is_Shop": false,
		"is_Sports": false,
		"is_Trans": false
	}, {
		"name": "Khom Fai Thai Dining Experience",
		"address": "48935 Hayes Rd",
		"postalCode": "48315",
		"lat": 42.655871348215,
		"lng": -82.976526423,
		"is_Accom": false,
		"is_Arts": false,
		"is_Asso": false,
		"is_Edu": false,
		"is_Finan": false,
		"is_Healthcare": false,
		"is_Parks": false,
		"is_Public": false,
		"is_Resturant": true,
		"is_Shop": false,
		"is_Sports": false,
		"is_Trans": false
	}, {
		"name": "Extreme Results by Vince",
		"address": "5201 Monroe St",
		"postalCode": "43623",
		"lat": 41.699570099379,
		"lng": -83.650138215357,
		"is_Accom": false,
		"is_Arts": false,
		"is_Asso": false,
		"is_Edu": false,
		"is_Finan": false,
		"is_Healthcare": false,
		"is_Parks": false,
		"is_Public": false,
		"is_Resturant": false,
		"is_Shop": false,
		"is_Sports": true,
		"is_Trans": false
	}, {
		"name": "Sweet Earth",
		"address": "141 W Maple Rd",
		"postalCode": "48009",
		"lat": 42.546656602285,
		"lng": -83.215509612913,
		"is_Accom": false,
		"is_Arts": false,
		"is_Asso": false,
		"is_Edu": false,
		"is_Finan": false,
		"is_Healthcare": false,
		"is_Parks": false,
		"is_Public": false,
		"is_Resturant": true,
		"is_Shop": false,
		"is_Sports": false,
		"is_Trans": false
	}, {
		"name": "Comerica Park",
		"address": "2100 Woodward Ave",
		"postalCode": "48201",
		"lat": 42.339121189762,
		"lng": -83.049349812793,
		"is_Accom": false,
		"is_Arts": false,
		"is_Asso": false,
		"is_Edu": false,
		"is_Finan": false,
		"is_Healthcare": false,
		"is_Parks": false,
		"is_Public": false,
		"is_Resturant": false,
		"is_Shop": false,
		"is_Sports": true,
		"is_Trans": false
	}, {
		"name": "DTE Energy Music Theatre",
		"address": "7774 Sashabaw Rd",
		"postalCode": "48348",
		"lat": 42.746507479481,
		"lng": -83.372754027455,
		"is_Accom": false,
		"is_Arts": true,
		"is_Asso": false,
		"is_Edu": false,
		"is_Finan": false,
		"is_Healthcare": false,
		"is_Parks": false,
		"is_Public": false,
		"is_Resturant": false,
		"is_Shop": false,
		"is_Sports": false,
		"is_Trans": false
	}, {
		"name": "REI",
		"address": "766 E Big Beaver Rd",
		"postalCode": "48083",
		"lat": 42.5609966,
		"lng": -83.1323302,
		"is_Accom": false,
		"is_Arts": false,
		"is_Asso": false,
		"is_Edu": false,
		"is_Finan": false,
		"is_Healthcare": false,
		"is_Parks": false,
		"is_Public": false,
		"is_Resturant": false,
		"is_Shop": true,
		"is_Sports": true,
		"is_Trans": false
	}, {
		"name": "Eastern Market Shed 5",
		"address": "Eastern Market",
		"postalCode": "48207",
		"lat": 42.348456494932,
		"lng": -83.041074462268,
		"is_Accom": false,
		"is_Arts": false,
		"is_Asso": false,
		"is_Edu": false,
		"is_Finan": false,
		"is_Healthcare": false,
		"is_Parks": false,
		"is_Public": false,
		"is_Resturant": false,
		"is_Shop": true,
		"is_Sports": false,
		"is_Trans": false
	}, {
		"name": "Eastern Market",
		"address": "2934 Russell St",
		"postalCode": "48207",
		"lat": 42.346801454515,
		"lng": -83.040027022362,
		"is_Accom": false,
		"is_Arts": false,
		"is_Asso": false,
		"is_Edu": false,
		"is_Finan": false,
		"is_Healthcare": false,
		"is_Parks": false,
		"is_Public": false,
		"is_Resturant": false,
		"is_Shop": true,
		"is_Sports": false,
		"is_Trans": false
	}, {
		"name": "Emagine Macomb",
		"address": "15251 23 Mile Rd",
		"postalCode": "48042",
		"lat": 42.673154328542,
		"lng": -82.974604734995,
		"is_Accom": false,
		"is_Arts": true,
		"is_Asso": false,
		"is_Edu": false,
		"is_Finan": false,
		"is_Healthcare": false,
		"is_Parks": false,
		"is_Public": false,
		"is_Resturant": false,
		"is_Shop": false,
		"is_Sports": false,
		"is_Trans": false
	}, {
		"name": "Mt Elliott Park",
		"address": null,
		"postalCode": null,
		"lat": 42.341163341417,
		"lng": -83.007202148438,
		"is_Accom": false,
		"is_Arts": false,
		"is_Asso": false,
		"is_Edu": false,
		"is_Finan": false,
		"is_Healthcare": false,
		"is_Parks": true,
		"is_Public": false,
		"is_Resturant": false,
		"is_Shop": false,
		"is_Sports": true,
		"is_Trans": false
	}, {
		"name": "Coffee Express",
		"address": "128 W 2nd St",
		"postalCode": "43452",
		"lat": 41.512091071743,
		"lng": -82.942603143352,
		"is_Accom": false,
		"is_Arts": false,
		"is_Asso": false,
		"is_Edu": false,
		"is_Finan": false,
		"is_Healthcare": false,
		"is_Parks": false,
		"is_Public": false,
		"is_Resturant": true,
		"is_Shop": false,
		"is_Sports": false,
		"is_Trans": false
	}, {
		"name": "One-Eyed Betty's",
		"address": "175 W Troy St",
		"postalCode": "48220",
		"lat": 42.459940623722,
		"lng": -83.135748034912,
		"is_Accom": false,
		"is_Arts": false,
		"is_Asso": false,
		"is_Edu": false,
		"is_Finan": false,
		"is_Healthcare": false,
		"is_Parks": false,
		"is_Public": false,
		"is_Resturant": false,
		"is_Shop": true,
		"is_Sports": false,
		"is_Trans": false
	}, {
		"name": "Edsel & Eleanor Ford House",
		"address": "1100 Lake Shore Rd",
		"postalCode": "48236",
		"lat": 42.455415536711,
		"lng": -82.874364824303,
		"is_Accom": false,
		"is_Arts": true,
		"is_Asso": false,
		"is_Edu": false,
		"is_Finan": false,
		"is_Healthcare": false,
		"is_Parks": false,
		"is_Public": false,
		"is_Resturant": false,
		"is_Shop": false,
		"is_Sports": false,
		"is_Trans": false
	}, {
		"name": "Boston-Edison Historic District",
		"address": null,
		"postalCode": null,
		"lat": 42.37828728371,
		"lng": -83.099641449455,
		"is_Accom": true,
		"is_Arts": false,
		"is_Asso": false,
		"is_Edu": false,
		"is_Finan": false,
		"is_Healthcare": false,
		"is_Parks": false,
		"is_Public": false,
		"is_Resturant": false,
		"is_Shop": false,
		"is_Sports": false,
		"is_Trans": false
	}, {
		"name": "Market North End",
		"address": "474 N Old Woodward Ave",
		"postalCode": "48009",
		"lat": 42.550202814293,
		"lng": -83.217106050932,
		"is_Accom": false,
		"is_Arts": false,
		"is_Asso": false,
		"is_Edu": false,
		"is_Finan": false,
		"is_Healthcare": false,
		"is_Parks": false,
		"is_Public": false,
		"is_Resturant": true,
		"is_Shop": false,
		"is_Sports": false,
		"is_Trans": false
	}, {
		"name": "El Club",
		"address": "4114 W Vernor Hwy",
		"postalCode": "48209",
		"lat": 42.321434307668,
		"lng": -83.093511048029,
		"is_Accom": false,
		"is_Arts": true,
		"is_Asso": false,
		"is_Edu": false,
		"is_Finan": false,
		"is_Healthcare": false,
		"is_Parks": false,
		"is_Public": false,
		"is_Resturant": false,
		"is_Shop": false,
		"is_Sports": false,
		"is_Trans": false
	}, {
		"name": "Elizabeth Park",
		"address": "Elizabeth Park Dr.",
		"postalCode": "48183",
		"lat": 42.132126181787,
		"lng": -83.179850578308,
		"is_Accom": false,
		"is_Arts": false,
		"is_Asso": false,
		"is_Edu": false,
		"is_Finan": false,
		"is_Healthcare": false,
		"is_Parks": true,
		"is_Public": false,
		"is_Resturant": false,
		"is_Shop": false,
		"is_Sports": true,
		"is_Trans": false
	}, {
		"name": "Johnny Black's East",
		"address": "35000 Moravian Dr",
		"postalCode": "48312",
		"lat": 42.551997314791,
		"lng": -82.980032467119,
		"is_Accom": false,
		"is_Arts": false,
		"is_Asso": false,
		"is_Edu": false,
		"is_Finan": false,
		"is_Healthcare": false,
		"is_Parks": false,
		"is_Public": false,
		"is_Resturant": true,
		"is_Shop": false,
		"is_Sports": false,
		"is_Trans": false
	}, {
		"name": "Erma's Original Frozen Custard",
		"address": "2080 E 14 Mile Rd",
		"postalCode": "48092",
		"lat": 42.534492865301,
		"lng": -83.085740440072,
		"is_Accom": false,
		"is_Arts": false,
		"is_Asso": false,
		"is_Edu": false,
		"is_Finan": false,
		"is_Healthcare": false,
		"is_Parks": false,
		"is_Public": false,
		"is_Resturant": true,
		"is_Shop": false,
		"is_Sports": false,
		"is_Trans": false
	}, {
		"name": "Einstein Bros Bagels",
		"address": "19341 Mack Ave",
		"postalCode": "48236",
		"lat": 42.421575536303,
		"lng": -82.910658717155,
		"is_Accom": false,
		"is_Arts": false,
		"is_Asso": false,
		"is_Edu": false,
		"is_Finan": false,
		"is_Healthcare": false,
		"is_Parks": false,
		"is_Public": false,
		"is_Resturant": true,
		"is_Shop": false,
		"is_Sports": false,
		"is_Trans": false
	}, {
		"name": "New Center Eatery",
		"address": "3100 W Grand Blvd",
		"postalCode": "48202",
		"lat": 42.369783,
		"lng": -83.074063,
		"is_Accom": false,
		"is_Arts": false,
		"is_Asso": false,
		"is_Edu": false,
		"is_Finan": false,
		"is_Healthcare": false,
		"is_Parks": false,
		"is_Public": false,
		"is_Resturant": true,
		"is_Shop": false,
		"is_Sports": false,
		"is_Trans": false
	}, {
		"name": "Erma's Original Frozen Custard",
		"address": "6451 Auburn Rd",
		"postalCode": "48317",
		"lat": 42.627739551541,
		"lng": -83.04618217128,
		"is_Accom": false,
		"is_Arts": false,
		"is_Asso": false,
		"is_Edu": false,
		"is_Finan": false,
		"is_Healthcare": false,
		"is_Parks": false,
		"is_Public": false,
		"is_Resturant": true,
		"is_Shop": false,
		"is_Sports": false,
		"is_Trans": false
	}, {
		"name": "El Charro",
		"address": "21519 21 Mile Rd",
		"postalCode": "48044",
		"lat": 42.644415180669,
		"lng": -82.898885386628,
		"is_Accom": false,
		"is_Arts": false,
		"is_Asso": false,
		"is_Edu": false,
		"is_Finan": false,
		"is_Healthcare": false,
		"is_Parks": false,
		"is_Public": false,
		"is_Resturant": true,
		"is_Shop": false,
		"is_Sports": false,
		"is_Trans": false
	}, {
		"name": "Earnest Brew Works",
		"address": "4342 S Detroit Ave",
		"postalCode": "43614",
		"lat": 41.590240760022,
		"lng": -83.615247839846,
		"is_Accom": false,
		"is_Arts": false,
		"is_Asso": true,
		"is_Edu": false,
		"is_Finan": false,
		"is_Healthcare": false,
		"is_Parks": false,
		"is_Public": false,
		"is_Resturant": false,
		"is_Shop": true,
		"is_Sports": false,
		"is_Trans": false
	}, {
		"name": "The Earle Restaurant",
		"address": "121 W Washington St",
		"postalCode": "48104",
		"lat": 42.280531854527,
		"lng": -83.749546306117,
		"is_Accom": false,
		"is_Arts": false,
		"is_Asso": false,
		"is_Edu": false,
		"is_Finan": false,
		"is_Healthcare": false,
		"is_Parks": false,
		"is_Public": false,
		"is_Resturant": true,
		"is_Shop": false,
		"is_Sports": false,
		"is_Trans": false
	}, {
		"name": "Penn Station East Coast Subs",
		"address": "1266 S Holland Sylvania Rd",
		"postalCode": "43615",
		"lat": 41.616807637683,
		"lng": -83.686598123975,
		"is_Accom": false,
		"is_Arts": false,
		"is_Asso": false,
		"is_Edu": false,
		"is_Finan": false,
		"is_Healthcare": false,
		"is_Parks": false,
		"is_Public": false,
		"is_Resturant": true,
		"is_Shop": false,
		"is_Sports": false,
		"is_Trans": false
	}, {
		"name": "Earth Lore",
		"address": "895 Wing St",
		"postalCode": "48170",
		"lat": 42.367841884894,
		"lng": -83.470724295117,
		"is_Accom": false,
		"is_Arts": false,
		"is_Asso": false,
		"is_Edu": false,
		"is_Finan": false,
		"is_Healthcare": false,
		"is_Parks": false,
		"is_Public": false,
		"is_Resturant": false,
		"is_Shop": true,
		"is_Sports": false,
		"is_Trans": false
	}, {
		"name": "Element 112",
		"address": "5735 Main St",
		"postalCode": "43560",
		"lat": 41.718234210273,
		"lng": -83.703398045561,
		"is_Accom": false,
		"is_Arts": false,
		"is_Asso": false,
		"is_Edu": false,
		"is_Finan": false,
		"is_Healthcare": false,
		"is_Parks": false,
		"is_Public": false,
		"is_Resturant": true,
		"is_Shop": false,
		"is_Sports": false,
		"is_Trans": false
	}, {
		"name": "Penn Station East Coast Subs",
		"address": "8425 N Wayne Rd",
		"postalCode": "48185",
		"lat": 42.349751111034,
		"lng": -83.386648195835,
		"is_Accom": false,
		"is_Arts": false,
		"is_Asso": false,
		"is_Edu": false,
		"is_Finan": false,
		"is_Healthcare": false,
		"is_Parks": false,
		"is_Public": false,
		"is_Resturant": true,
		"is_Shop": false,
		"is_Sports": false,
		"is_Trans": false
	}, {
		"name": "Penn Station East Coast Subs",
		"address": "146 S Main St",
		"postalCode": "48307",
		"lat": 42.677895891333,
		"lng": -83.133152427456,
		"is_Accom": false,
		"is_Arts": false,
		"is_Asso": false,
		"is_Edu": false,
		"is_Finan": false,
		"is_Healthcare": false,
		"is_Parks": false,
		"is_Public": false,
		"is_Resturant": true,
		"is_Shop": false,
		"is_Sports": false,
		"is_Trans": false
	}, {
		"name": "Penn Station East Coast Subs",
		"address": "44629 N Gratiot Ave",
		"postalCode": "48036",
		"lat": 42.626202239545,
		"lng": -82.863223683439,
		"is_Accom": false,
		"is_Arts": false,
		"is_Asso": false,
		"is_Edu": false,
		"is_Finan": false,
		"is_Healthcare": false,
		"is_Parks": false,
		"is_Public": false,
		"is_Resturant": true,
		"is_Shop": false,
		"is_Sports": false,
		"is_Trans": false
	}, {
		"name": "Ernie's Market",
		"address": "8500 Capital St",
		"postalCode": "48237",
		"lat": 42.455760501242,
		"lng": -83.157245591183,
		"is_Accom": false,
		"is_Arts": false,
		"is_Asso": false,
		"is_Edu": false,
		"is_Finan": false,
		"is_Healthcare": false,
		"is_Parks": false,
		"is_Public": false,
		"is_Resturant": true,
		"is_Shop": false,
		"is_Sports": false,
		"is_Trans": false
	}, {
		"name": "Eyebrows, Etc.",
		"address": null,
		"postalCode": null,
		"lat": 42.508570996405,
		"lng": -83.219784581295,
		"is_Accom": false,
		"is_Arts": false,
		"is_Asso": false,
		"is_Edu": false,
		"is_Finan": false,
		"is_Healthcare": false,
		"is_Parks": false,
		"is_Public": false,
		"is_Resturant": false,
		"is_Shop": true,
		"is_Sports": false,
		"is_Trans": false
	}, {
		"name": "Eternal Tattoos",
		"address": "27590 Plymouth Rd",
		"postalCode": "48150",
		"lat": 42.369956106223,
		"lng": -83.315277397653,
		"is_Accom": false,
		"is_Arts": true,
		"is_Asso": false,
		"is_Edu": false,
		"is_Finan": false,
		"is_Healthcare": false,
		"is_Parks": false,
		"is_Public": false,
		"is_Resturant": false,
		"is_Shop": false,
		"is_Sports": false,
		"is_Trans": false
	}, {
		"name": "Khom Fai Thai Dining Experience",
		"address": "48935 Hayes Rd",
		"postalCode": "48315",
		"lat": 42.655871348215,
		"lng": -82.976526423,
		"is_Accom": false,
		"is_Arts": false,
		"is_Asso": false,
		"is_Edu": false,
		"is_Finan": false,
		"is_Healthcare": false,
		"is_Parks": false,
		"is_Public": false,
		"is_Resturant": true,
		"is_Shop": false,
		"is_Sports": false,
		"is_Trans": false
	}, {
		"name": "Extreme Results by Vince",
		"address": "5201 Monroe St",
		"postalCode": "43623",
		"lat": 41.699570099379,
		"lng": -83.650138215357,
		"is_Accom": false,
		"is_Arts": false,
		"is_Asso": false,
		"is_Edu": false,
		"is_Finan": false,
		"is_Healthcare": false,
		"is_Parks": false,
		"is_Public": false,
		"is_Resturant": false,
		"is_Shop": false,
		"is_Sports": true,
		"is_Trans": false
	}, {
		"name": "Sweet Earth",
		"address": "141 W Maple Rd",
		"postalCode": "48009",
		"lat": 42.546656602285,
		"lng": -83.215509612913,
		"is_Accom": false,
		"is_Arts": false,
		"is_Asso": false,
		"is_Edu": false,
		"is_Finan": false,
		"is_Healthcare": false,
		"is_Parks": false,
		"is_Public": false,
		"is_Resturant": true,
		"is_Shop": false,
		"is_Sports": false,
		"is_Trans": false
	}
]
